{
"type": "FeatureCollection",
"name": "Speed_Humps",
"crs": { "type": "name", "properties": { "name": "urn:ogc:def:crs:OGC:1.3:CRS84" } },
"features": [
{ "type": "Feature", "properties": { "OBJECTID": 1, "WARD": 4, "LOCATION": "600 Farragut St. NW", "COUNT_": 2, "INSTALLYEAR": "FY-08", "X": 398244.29, "Y": 142545.16 }, "geometry": { "type": "Point", "coordinates": [ -77.020256881763856, 38.950811672467474 ] } },
{ "type": "Feature", "properties": { "OBJECTID": 2, "WARD": 4, "LOCATION": "300 Gallatin St. NW", "COUNT_": 2, "INSTALLYEAR": "FY-08", "X": 398601.96, "Y": 142683.13 }, "geometry": { "type": "Point", "coordinates": [ -77.016130934424751, 38.952055186181738 ] } },
{ "type": "Feature", "properties": { "OBJECTID": 3, "WARD": 5, "LOCATION": "Unit Blk R Street NW", "COUNT_": 2, "INSTALLYEAR": "FY-08", "X": 398906.08, "Y": 138326.98 }, "geometry": { "type": "Point", "coordinates": [ -77.012615473371469, 38.912814084399983 ] } },
{ "type": "Feature", "properties": { "OBJECTID": 4, "WARD": 5, "LOCATION": "Unit  BLK S Street NW (2) Tables", "COUNT_": 2, "INSTALLYEAR": "FY-08", "X": 398923.32, "Y": 138453.6 }, "geometry": { "type": "Point", "coordinates": [ -77.012416890195098, 38.913954741500632 ] } },
{ "type": "Feature", "properties": { "OBJECTID": 5, "WARD": 5, "LOCATION": "Unit & 100 BLK Quincy St NE (2) 12FT", "COUNT_": 2, "INSTALLYEAR": "FY-08", "X": 399453.64, "Y": 138238.49 }, "geometry": { "type": "Point", "coordinates": [ -77.00630189025766, 38.912017447587154 ] } },
{ "type": "Feature", "properties": { "OBJECTID": 6, "WARD": 5, "LOCATION": "Unit & 100 BLK Q St NE (2) 22FT", "COUNT_": 2, "INSTALLYEAR": "FY-08", "X": 399464.96, "Y": 138105.77 }, "geometry": { "type": "Point", "coordinates": [ -77.006171265615919, 38.910821867449911 ] } },
{ "type": "Feature", "properties": { "OBJECTID": 7, "WARD": 5, "LOCATION": "Unit  Blk Quincy Pl NW (12)", "COUNT_": 2, "INSTALLYEAR": "FY-08", "X": 399453.64, "Y": 138238.49 }, "geometry": { "type": "Point", "coordinates": [ -77.00630189025766, 38.912017447587154 ] } },
{ "type": "Feature", "properties": { "OBJECTID": 8, "WARD": 5, "LOCATION": "100 Blk Adams St. NW", "COUNT_": 2, "INSTALLYEAR": "FY-08", "X": 398885.81001292, "Y": 139151.35958255999 }, "geometry": { "type": "Point", "coordinates": [ -77.012850530131814, 38.920240344674809 ] } },
{ "type": "Feature", "properties": { "OBJECTID": 9, "WARD": 5, "LOCATION": "Unit Blk Adams St. NW", "COUNT_": 2, "INSTALLYEAR": "FY-08", "X": 399081.14652509999, "Y": 139151.14889456 }, "geometry": { "type": "Point", "coordinates": [ -77.010598013443641, 38.920238672767049 ] } },
{ "type": "Feature", "properties": { "OBJECTID": 10, "WARD": 5, "LOCATION": "2300 Blk 15th Street NE", "COUNT_": 2, "INSTALLYEAR": "FY-08", "X": 401501.51123135001, "Y": 139260.13116665999 }, "geometry": { "type": "Point", "coordinates": [ -76.982687419400051, 38.921219619643288 ] } },
{ "type": "Feature", "properties": { "OBJECTID": 11, "WARD": 5, "LOCATION": "2700 Blk 10th St. NE ", "COUNT_": 2, "INSTALLYEAR": "FY-08", "X": 400656.79167856002, "Y": 139685.82553505999 }, "geometry": { "type": "Point", "coordinates": [ -76.992428001916622, 38.925055448687807 ] } },
{ "type": "Feature", "properties": { "OBJECTID": 12, "WARD": 5, "LOCATION": "1300 Blk Lawrence St. NE btw 13th & 14th", "COUNT_": 2, "INSTALLYEAR": "FY-08", "X": 401088.61372695997, "Y": 140427.37673575 }, "geometry": { "type": "Point", "coordinates": [ -76.987446948065354, 38.931735145428448 ] } },
{ "type": "Feature", "properties": { "OBJECTID": 13, "WARD": 5, "LOCATION": "400 Blk Jefferson St NW", "COUNT_": 2, "INSTALLYEAR": "FY-08", "X": 398370.55292444001, "Y": 143056.03075419 }, "geometry": { "type": "Point", "coordinates": [ -77.018801474415625, 38.955413977732988 ] } },
{ "type": "Feature", "properties": { "OBJECTID": 14, "WARD": 6, "LOCATION": "Unit blk Randolph pl NW  (2) 22ft", "COUNT_": 2, "INSTALLYEAR": "FY-08", "X": 398901.11, "Y": 138365.85 }, "geometry": { "type": "Point", "coordinates": [ -77.012672841022422, 38.913164232335404 ] } },
{ "type": "Feature", "properties": { "OBJECTID": 15, "WARD": 6, "LOCATION": "15th Street , F Street & Tenn Ave NE (raised cross walk)", "COUNT_": 2, "INSTALLYEAR": "FY-08", "X": 401418.07999926998, "Y": 136649.23999624001 }, "geometry": { "type": "Point", "coordinates": [ -76.983654907393472, 38.897699950409176 ] } },
{ "type": "Feature", "properties": { "OBJECTID": 16, "WARD": 6, "LOCATION": "1500 Islamic Way", "COUNT_": 2, "INSTALLYEAR": "FY-08", "X": 396784.61, "Y": 137912.52 }, "geometry": { "type": "Point", "coordinates": [ -77.037074644971753, 38.909075285226578 ] } },
{ "type": "Feature", "properties": { "OBJECTID": 17, "WARD": 6, "LOCATION": "1200 Blk Potomac Ave SE", "COUNT_": 2, "INSTALLYEAR": "FY-08", "X": 400930.34879881999, "Y": 134551.08415429 }, "geometry": { "type": "Point", "coordinates": [ -76.989280226080922, 38.878799618450493 ] } },
{ "type": "Feature", "properties": { "OBJECTID": 18, "WARD": 6, "LOCATION": "1300 Blk Potomac Ave SE  (22\") ", "COUNT_": 2, "INSTALLYEAR": "FY-08", "X": 401038.09, "Y": 134574.31 }, "geometry": { "type": "Point", "coordinates": [ -76.988038498612596, 38.879008725724184 ] } },
{ "type": "Feature", "properties": { "OBJECTID": 19, "WARD": 7, "LOCATION": "200 Blk 50th St SE (2)", "COUNT_": 2, "INSTALLYEAR": "FY-08", "X": 406004.16, "Y": 135348.37 }, "geometry": { "type": "Point", "coordinates": [ -76.930798766459873, 38.885961872248849 ] } },
{ "type": "Feature", "properties": { "OBJECTID": 20, "WARD": 7, "LOCATION": "4900 Blk B St SE (2)", "COUNT_": 2, "INSTALLYEAR": "FY-08", "X": 405941.81933147, "Y": 135443.69967512001 }, "geometry": { "type": "Point", "coordinates": [ -76.931516476214767, 38.886821061737024 ] } },
{ "type": "Feature", "properties": { "OBJECTID": 21, "WARD": 7, "LOCATION": "5000 Blk Bass Pl SE (2)", "COUNT_": 2, "INSTALLYEAR": "FY-08", "X": 406127.17494763999, "Y": 135335.18956301999 }, "geometry": { "type": "Point", "coordinates": [ -76.929381023216166, 38.885842289233054 ] } },
{ "type": "Feature", "properties": { "OBJECTID": 22, "WARD": 7, "LOCATION": "1700 Blk Gainesville St SE (2)", "COUNT_": 2, "INSTALLYEAR": "FY-08", "X": 401681.04838350997, "Y": 131927.99138386 }, "geometry": { "type": "Point", "coordinates": [ -76.980634998531428, 38.855168604353977 ] } },
{ "type": "Feature", "properties": { "OBJECTID": 23, "WARD": 7, "LOCATION": "2100 Blk 31st Street SE  (12')", "COUNT_": 2, "INSTALLYEAR": "FY-08", "X": 403225.06, "Y": 132953.91 }, "geometry": { "type": "Point", "coordinates": [ -76.962841701152499, 38.864406207083469 ] } },
{ "type": "Feature", "properties": { "OBJECTID": 24, "WARD": 7, "LOCATION": "400 Blk 20th St NE   (12')", "COUNT_": 2, "INSTALLYEAR": "FY-08", "X": 402045.84, "Y": 136376.86 }, "geometry": { "type": "Point", "coordinates": [ -76.976419012178823, 38.895245015212396 ] } },
{ "type": "Feature", "properties": { "OBJECTID": 25, "WARD": 7, "LOCATION": "3400 Dix St. NE", "COUNT_": 2, "INSTALLYEAR": "FY-08", "X": 403733.76, "Y": 136345.86 }, "geometry": { "type": "Point", "coordinates": [ -76.956961808446195, 38.894960207973675 ] } },
{ "type": "Feature", "properties": { "OBJECTID": 26, "WARD": 7, "LOCATION": "3300 Clay St NE", "COUNT_": 2, "INSTALLYEAR": "FY-08", "X": 403523.79, "Y": 136211.51 }, "geometry": { "type": "Point", "coordinates": [ -76.959382901376571, 38.893750800298577 ] } },
{ "type": "Feature", "properties": { "OBJECTID": 27, "WARD": 7, "LOCATION": "Unit Blk Elmira St. SW", "COUNT_": 2, "INSTALLYEAR": "FY-08", "X": 399120.39, "Y": 128676.0 }, "geometry": { "type": "Point", "coordinates": [ -77.010132068745463, 38.825874364074487 ] } },
{ "type": "Feature", "properties": { "OBJECTID": 28, "WARD": 7, "LOCATION": "3600 Blk Bangor St. SE", "COUNT_": 2, "INSTALLYEAR": "FY-08", "X": 403933.83728159999, "Y": 132529.85013641999 }, "geometry": { "type": "Point", "coordinates": [ -76.954677279732635, 38.860583214161224 ] } },
{ "type": "Feature", "properties": { "OBJECTID": 29, "WARD": 8, "LOCATION": "18th & Good Hope Rd (2)", "COUNT_": 2, "INSTALLYEAR": "FY-08", "X": 401821.25001563999, "Y": 133094.09000893999 }, "geometry": { "type": "Point", "coordinates": [ -76.979016654275455, 38.865673033506788 ] } },
{ "type": "Feature", "properties": { "OBJECTID": 30, "WARD": 8, "LOCATION": "Unit Blk Galveston Pl SW (2)", "COUNT_": 2, "INSTALLYEAR": "FY-08", "X": 399228.02425323997, "Y": 128424.52830861 }, "geometry": { "type": "Point", "coordinates": [ -77.008892245980164, 38.8236090889976 ] } },
{ "type": "Feature", "properties": { "OBJECTID": 31, "WARD": 1, "LOCATION": "700 Blk Princeton PL NW", "COUNT_": 3, "INSTALLYEAR": "FY-08", "X": 398036.93010812998, "Y": 140835.63465612999 }, "geometry": { "type": "Point", "coordinates": [ -77.022644178312262, 38.935411336736344 ] } },
{ "type": "Feature", "properties": { "OBJECTID": 32, "WARD": 4, "LOCATION": "Unit Blk Sheridan St. NW", "COUNT_": 3, "INSTALLYEAR": "FY-08", "X": 399141.96348516003, "Y": 144278.39638732001 }, "geometry": { "type": "Point", "coordinates": [ -77.009903119511463, 38.96642645386072 ] } },
{ "type": "Feature", "properties": { "OBJECTID": 33, "WARD": 5, "LOCATION": "Unit BLK Seaton Place NW (3) 12FT", "COUNT_": 3, "INSTALLYEAR": "FY-08", "X": 399271.47023728001, "Y": 138550.92793400999 }, "geometry": { "type": "Point", "coordinates": [ -77.0084026642038, 38.914831862038142 ] } },
{ "type": "Feature", "properties": { "OBJECTID": 34, "WARD": 5, "LOCATION": "Unit Blk T Street NW (12)", "COUNT_": 3, "INSTALLYEAR": "FY-08", "X": 398877.31, "Y": 138655.19 }, "geometry": { "type": "Point", "coordinates": [ -77.012947735964062, 38.915770674348813 ] } },
{ "type": "Feature", "properties": { "OBJECTID": 35, "WARD": 5, "LOCATION": "Farragut Pl. Betw. 6th St & S. Dakota Ave", "COUNT_": 3, "INSTALLYEAR": "FY-08", "X": 400392.49999832001, "Y": 142633.6400018 }, "geometry": { "type": "Point", "coordinates": [ -76.995474194009603, 38.951610392366142 ] } },
{ "type": "Feature", "properties": { "OBJECTID": 36, "WARD": 5, "LOCATION": "Farraday Pl btw 6th St & S. Dakota Ave NE", "COUNT_": 3, "INSTALLYEAR": "FY-08", "X": 400441.15001436003, "Y": 142585.75001774999 }, "geometry": { "type": "Point", "coordinates": [ -76.994912972023528, 38.951178963072707 ] } },
{ "type": "Feature", "properties": { "OBJECTID": 37, "WARD": 6, "LOCATION": "200 Blk 18th Street SE ", "COUNT_": 3, "INSTALLYEAR": "FY-08", "X": 401822.42083164002, "Y": 135486.73490715999 }, "geometry": { "type": "Point", "coordinates": [ -76.978996820966444, 38.887226927124999 ] } },
{ "type": "Feature", "properties": { "OBJECTID": 38, "WARD": 7, "LOCATION": "55th ST Bet James PL & Eastern AV NE (3)", "COUNT_": 3, "INSTALLYEAR": "FY-08", "X": 406781.94998824998, "Y": 136871.81999645001 }, "geometry": { "type": "Point", "coordinates": [ -76.921818981433788, 38.899680015970553 ] } },
{ "type": "Feature", "properties": { "OBJECTID": 39, "WARD": 7, "LOCATION": "4900 Blk C St SE (3)", "COUNT_": 3, "INSTALLYEAR": "FY-08", "X": 405917.37840344, "Y": 135293.46652297999 }, "geometry": { "type": "Point", "coordinates": [ -76.931799477604685, 38.885467868941404 ] } },
{ "type": "Feature", "properties": { "OBJECTID": 40, "WARD": 7, "LOCATION": "5100 Blk H St SE (3)", "COUNT_": 3, "INSTALLYEAR": "FY-08", "X": 406159.06374766998, "Y": 134516.22047425999 }, "geometry": { "type": "Point", "coordinates": [ -76.929020814953375, 38.878464477064824 ] } },
{ "type": "Feature", "properties": { "OBJECTID": 41, "WARD": 7, "LOCATION": "Hayes St. NE between 50th Pl. & Division Ave", "COUNT_": 3, "INSTALLYEAR": "FY-08", "X": 406497.88998798002, "Y": 136895.89999646999 }, "geometry": { "type": "Point", "coordinates": [ -76.925093436987311, 38.89989908276457 ] } },
{ "type": "Feature", "properties": { "OBJECTID": 42, "WARD": 8, "LOCATION": "3400 Blk 24th ST Se (3)", "COUNT_": 3, "INSTALLYEAR": "FY-08", "X": 402596.90000035998, "Y": 131150.84002313999 }, "geometry": { "type": "Point", "coordinates": [ -76.970086447718771, 38.848165460261946 ] } },
{ "type": "Feature", "properties": { "OBJECTID": 43, "WARD": 8, "LOCATION": "2900 Blk Pomeroy Rd SE (3)", "COUNT_": 3, "INSTALLYEAR": "FY-08", "X": 400315.29, "Y": 132090.59 }, "geometry": { "type": "Point", "coordinates": [ -76.99636976447519, 38.856634911783978 ] } },
{ "type": "Feature", "properties": { "OBJECTID": 44, "WARD": 8, "LOCATION": "300 Blk Parkland Pl.", "COUNT_": 3, "INSTALLYEAR": "FY-08", "X": 400011.04873396002, "Y": 130764.07531878 }, "geometry": { "type": "Point", "coordinates": [ -76.999875006711989, 38.844685144709587 ] } },
{ "type": "Feature", "properties": { "OBJECTID": 45, "WARD": 8, "LOCATION": "Unit Blk Galveston Pl SW", "COUNT_": 3, "INSTALLYEAR": "FY-08", "X": 399156.44543716998, "Y": 128511.71982868999 }, "geometry": { "type": "Point", "coordinates": [ -77.009716644679912, 38.824394485703657 ] } },
{ "type": "Feature", "properties": { "OBJECTID": 46, "WARD": 4, "LOCATION": "1300 Blk Tuckerman St. NW (4)", "COUNT_": 4, "INSTALLYEAR": "FY-08", "X": 397265.66729141999, "Y": 144405.98723544 }, "geometry": { "type": "Point", "coordinates": [ -77.031554096917134, 38.967571985530157 ] } },
{ "type": "Feature", "properties": { "OBJECTID": 47, "WARD": 5, "LOCATION": "500 Blk 48th St NE (4)", "COUNT_": 4, "INSTALLYEAR": "FY-08", "X": 405704.1, "Y": 136435.15 }, "geometry": { "type": "Point", "coordinates": [ -76.934248213364441, 38.895753989187689 ] } },
{ "type": "Feature", "properties": { "OBJECTID": 48, "WARD": 5, "LOCATION": "Emerson St NE btw 6th St. & 8th St.", "COUNT_": 4, "INSTALLYEAR": "FY-08", "X": 400437.19999836001, "Y": 142460.69001763 }, "geometry": { "type": "Point", "coordinates": [ -76.994958620730628, 38.950052390162234 ] } },
{ "type": "Feature", "properties": { "OBJECTID": 49, "WARD": 7, "LOCATION": "3600 & 3700 Blk Camden St SE (4)", "COUNT_": 4, "INSTALLYEAR": "FY-08", "X": 404088.78544175002, "Y": 132502.04066438999 }, "geometry": { "type": "Point", "coordinates": [ -76.952892159558388, 38.860331988427625 ] } },
{ "type": "Feature", "properties": { "OBJECTID": 50, "WARD": 7, "LOCATION": "20th & R Street SE  (12)", "COUNT_": 4, "INSTALLYEAR": "FY-08", "X": 396108.21874634002, "Y": 138305.49999777999 }, "geometry": { "type": "Point", "coordinates": [ -77.044875433930059, 38.912612648293909 ] } },
{ "type": "Feature", "properties": { "OBJECTID": 51, "WARD": 7, "LOCATION": "4300 C Street SE ", "COUNT_": 4, "INSTALLYEAR": "FY-08", "X": 404658.72, "Y": 135477.99 }, "geometry": { "type": "Point", "coordinates": [ -76.94630532830557, 38.887137696506308 ] } },
{ "type": "Feature", "properties": { "OBJECTID": 52, "WARD": 7, "LOCATION": "2100- 2300 Nicholson Place SE", "COUNT_": 4, "INSTALLYEAR": "FY-08", "X": 402206.83, "Y": 134033.89 }, "geometry": { "type": "Point", "coordinates": [ -76.974570734646733, 38.874138251790789 ] } },
{ "type": "Feature", "properties": { "OBJECTID": 53, "WARD": 7, "LOCATION": "3200 O St. SE", "COUNT_": 4, "INSTALLYEAR": "FY-08", "X": 403446.84, "Y": 133758.52 }, "geometry": { "type": "Point", "coordinates": [ -76.960282219908223, 38.871653622400096 ] } },
{ "type": "Feature", "properties": { "OBJECTID": 54, "WARD": 8, "LOCATION": "3300 Blk Brothers Pl SE (4)", "COUNT_": 4, "INSTALLYEAR": "FY-08", "X": 399695.58226966998, "Y": 130571.3148066 }, "geometry": { "type": "Point", "coordinates": [ -77.003508862848861, 38.842948619302177 ] } },
{ "type": "Feature", "properties": { "OBJECTID": 55, "WARD": 5, "LOCATION": "26th Street Bet. Benning Road & i (Eye) Street, NE (22\")", "COUNT_": 5, "INSTALLYEAR": "FY-08", "X": 402582.32060834998, "Y": 136976.51318055001 }, "geometry": { "type": "Point", "coordinates": [ -76.970232517511548, 38.900645496907373 ] } },
{ "type": "Feature", "properties": { "OBJECTID": 56, "WARD": 6, "LOCATION": "3000 Blk Clinton St. NE", "COUNT_": 5, "INSTALLYEAR": "FY-08", "X": 403051.02352078003, "Y": 140315.12735964 }, "geometry": { "type": "Point", "coordinates": [ -76.964814336890797, 38.930719346556231 ] } },
{ "type": "Feature", "properties": { "OBJECTID": 57, "WARD": 6, "LOCATION": "Unit - 200 Blk N St. NW", "COUNT_": 6, "INSTALLYEAR": "FY-08", "X": 398803.08, "Y": 137691.63 }, "geometry": { "type": "Point", "coordinates": [ -77.013801983043493, 38.907090498763523 ] } },
{ "type": "Feature", "properties": { "OBJECTID": 58, "WARD": 6, "LOCATION": "1200-1400 Blk E Street SE  (12')", "COUNT_": 6, "INSTALLYEAR": "FY-08", "X": 401274.65, "Y": 135021.02 }, "geometry": { "type": "Point", "coordinates": [ -76.985311362799081, 38.883032552755552 ] } },
{ "type": "Feature", "properties": { "OBJECTID": 59, "WARD": 3, "LOCATION": "3700 Jenifer St. NW ", "COUNT_": 1, "INSTALLYEAR": "FY-09", "X": 393913.67, "Y": 143437.84 }, "geometry": { "type": "Point", "coordinates": [ -77.070224610904432, 38.958833838054794 ] } },
{ "type": "Feature", "properties": { "OBJECTID": 60, "WARD": 3, "LOCATION": "2800 Block of 36th Street, NW", "COUNT_": 1, "INSTALLYEAR": "FY-09", "X": 393853.43986425002, "Y": 139856.51497521999 }, "geometry": { "type": "Point", "coordinates": [ -77.070887441465828, 38.926571818546257 ] } },
{ "type": "Feature", "properties": { "OBJECTID": 61, "WARD": 3, "LOCATION": "3600 Block of Fulton St. between 36th St and 36th Pl", "COUNT_": 1, "INSTALLYEAR": "FY-09", "X": 393804.69999220001, "Y": 139814.22019118001 }, "geometry": { "type": "Point", "coordinates": [ -77.071449151690587, 38.926190471289857 ] } },
{ "type": "Feature", "properties": { "OBJECTID": 62, "WARD": 3, "LOCATION": "3600 Block of Fulton St. between 36th Pl and Wis Ave.", "COUNT_": 1, "INSTALLYEAR": "FY-09", "X": 393704.85394410999, "Y": 139814.13286318001 }, "geometry": { "type": "Point", "coordinates": [ -77.072600618182562, 38.926188975086269 ] } },
{ "type": "Feature", "properties": { "OBJECTID": 63, "WARD": 3, "LOCATION": "2800 Block of 36th Street, NW", "COUNT_": 1, "INSTALLYEAR": "FY-09", "X": 393853.43986425002, "Y": 139856.51497521999 }, "geometry": { "type": "Point", "coordinates": [ -77.070887441465828, 38.926571818546257 ] } },
{ "type": "Feature", "properties": { "OBJECTID": 64, "WARD": 3, "LOCATION": "3500 Block of Fulton Street, NW", "COUNT_": 1, "INSTALLYEAR": "FY-09", "X": 393996.05112838, "Y": 139813.97004717999 }, "geometry": { "type": "Point", "coordinates": [ -77.069242406816329, 38.926189546425491 ] } },
{ "type": "Feature", "properties": { "OBJECTID": 65, "WARD": 3, "LOCATION": "4100 Harrison Street  NW", "COUNT_": 1, "INSTALLYEAR": "FY-09", "X": 393006.14, "Y": 143216.22 }, "geometry": { "type": "Point", "coordinates": [ -77.080693165467608, 38.956830669778135 ] } },
{ "type": "Feature", "properties": { "OBJECTID": 66, "WARD": 4, "LOCATION": "600 Tuckerman St. NW", "COUNT_": 1, "INSTALLYEAR": "FY-09", "X": 398153.79, "Y": 144355.83 }, "geometry": { "type": "Point", "coordinates": [ -77.021305802743726, 38.967122473205933 ] } },
{ "type": "Feature", "properties": { "OBJECTID": 67, "WARD": 4, "LOCATION": "100 Tuckerman Street NE", "COUNT_": 1, "INSTALLYEAR": "FY-09", "X": 399392.97001339, "Y": 144380.47001942 }, "geometry": { "type": "Point", "coordinates": [ -77.007006860947939, 38.967346167678251 ] } },
{ "type": "Feature", "properties": { "OBJECTID": 68, "WARD": 4, "LOCATION": "5600  Blk. Of  1 st  Street  NE", "COUNT_": 1, "INSTALLYEAR": "FY-09", "X": 399479.11, "Y": 143324.04 }, "geometry": { "type": "Point", "coordinates": [ -77.006012080708302, 38.957829633360006 ] } },
{ "type": "Feature", "properties": { "OBJECTID": 69, "WARD": 4, "LOCATION": "1400-1500 Blk. Underwood Street", "COUNT_": 1, "INSTALLYEAR": "FY-09", "X": 396962.64, "Y": 144548.86 }, "geometry": { "type": "Point", "coordinates": [ -77.035051399962242, 38.968858022121701 ] } },
{ "type": "Feature", "properties": { "OBJECTID": 70, "WARD": 4, "LOCATION": "1200 Blk. Hamilton Street  NW", "COUNT_": 1, "INSTALLYEAR": "FY-09", "X": 397517.97932365001, "Y": 142778.53657793 }, "geometry": { "type": "Point", "coordinates": [ -77.028636745756415, 38.952912239869356 ] } },
{ "type": "Feature", "properties": { "OBJECTID": 71, "WARD": 4, "LOCATION": "6700 Luzon Ave. NW", "COUNT_": 1, "INSTALLYEAR": "FY-09", "X": 397221.72, "Y": 144837.59 }, "geometry": { "type": "Point", "coordinates": [ -77.03206295978346, 38.971459829144699 ] } },
{ "type": "Feature", "properties": { "OBJECTID": 72, "WARD": 5, "LOCATION": "14TH Street NE bet. Adams & Downing Place", "COUNT_": 1, "INSTALLYEAR": "FY-09", "X": 401398.55001524999, "Y": 139226.57999863001 }, "geometry": { "type": "Point", "coordinates": [ -76.983874798284603, 38.920917549470069 ] } },
{ "type": "Feature", "properties": { "OBJECTID": 73, "WARD": 5, "LOCATION": "300 blk. Of W Street  NE", "COUNT_": 1, "INSTALLYEAR": "FY-09", "X": 399886.76559785003, "Y": 139033.78675045 }, "geometry": { "type": "Point", "coordinates": [ -77.001308023797577, 38.919181909675558 ] } },
{ "type": "Feature", "properties": { "OBJECTID": 74, "WARD": 5, "LOCATION": "3100 10th St NE bet.Irving and Jackson street", "COUNT_": 1, "INSTALLYEAR": "FY-09", "X": 400655.71503855998, "Y": 140124.20527947001 }, "geometry": { "type": "Point", "coordinates": [ -76.992439999267276, 38.929004512089392 ] } },
{ "type": "Feature", "properties": { "OBJECTID": 75, "WARD": 5, "LOCATION": "Lawrence Street NE bet. 14th and 15th Street", "COUNT_": 1, "INSTALLYEAR": "FY-09", "X": 401356.27001520997, "Y": 140444.61001576 }, "geometry": { "type": "Point", "coordinates": [ -76.984359947249715, 38.931890015577046 ] } },
{ "type": "Feature", "properties": { "OBJECTID": 76, "WARD": 5, "LOCATION": "Lawrence Street NE bet. 14th and 15th Street", "COUNT_": 1, "INSTALLYEAR": "FY-09", "X": 401356.27001520997, "Y": 140444.61001576 }, "geometry": { "type": "Point", "coordinates": [ -76.984359947249715, 38.931890015577046 ] } },
{ "type": "Feature", "properties": { "OBJECTID": 77, "WARD": 5, "LOCATION": "Lawrence Street NE  bet. 14th & 15th Street", "COUNT_": 1, "INSTALLYEAR": "FY-09", "X": 401356.27001520997, "Y": 140444.61001576 }, "geometry": { "type": "Point", "coordinates": [ -76.984359947249715, 38.931890015577046 ] } },
{ "type": "Feature", "properties": { "OBJECTID": 78, "WARD": 5, "LOCATION": "10th Street NE bet. Irving & Jackson St (3100 Blk)", "COUNT_": 1, "INSTALLYEAR": "FY-09", "X": 400655.71503855998, "Y": 140124.20527947001 }, "geometry": { "type": "Point", "coordinates": [ -76.992439999267276, 38.929004512089392 ] } },
{ "type": "Feature", "properties": { "OBJECTID": 79, "WARD": 7, "LOCATION": "Morris Rd./ SE 17th Street to Bruce PL. SE", "COUNT_": 1, "INSTALLYEAR": "FY-09", "X": 401666.65001550002, "Y": 132160.60002407999 }, "geometry": { "type": "Point", "coordinates": [ -76.980800317986606, 38.857264069822527 ] } },
{ "type": "Feature", "properties": { "OBJECTID": 80, "WARD": 7, "LOCATION": "5900 Blk. Of Clay Place NE", "COUNT_": 1, "INSTALLYEAR": "FY-09", "X": 407311.22989274003, "Y": 136120.13116374999 }, "geometry": { "type": "Point", "coordinates": [ -76.915725369284999, 38.892904288142546 ] } },
{ "type": "Feature", "properties": { "OBJECTID": 81, "WARD": 7, "LOCATION": "3700 Block of Bangor Street, SE", "COUNT_": 1, "INSTALLYEAR": "FY-09", "X": 404027.67273768998, "Y": 132696.31810457 }, "geometry": { "type": "Point", "coordinates": [ -76.953595149093076, 38.862082403068861 ] } },
{ "type": "Feature", "properties": { "OBJECTID": 82, "WARD": 7, "LOCATION": "200 Blk. Of 62th Street  NE", "COUNT_": 1, "INSTALLYEAR": "FY-09", "X": 407608.57181301003, "Y": 136068.7508757 }, "geometry": { "type": "Point", "coordinates": [ -76.912298464889332, 38.892438912395448 ] } },
{ "type": "Feature", "properties": { "OBJECTID": 83, "WARD": 8, "LOCATION": "Mississippi Ave from Wheeler Rd to 13th St SE", "COUNT_": 1, "INSTALLYEAR": "FY-09", "X": 400997.93001488002, "Y": 130226.03000627999 }, "geometry": { "type": "Point", "coordinates": [ -76.988507642358215, 38.839837625535772 ] } },
{ "type": "Feature", "properties": { "OBJECTID": 84, "WARD": 8, "LOCATION": "Morris Rd./ SE 17th Street to Bruce PL. SE", "COUNT_": 1, "INSTALLYEAR": "FY-09", "X": 401666.65001550002, "Y": 132160.60002407999 }, "geometry": { "type": "Point", "coordinates": [ -76.980800317986606, 38.857264069822527 ] } },
{ "type": "Feature", "properties": { "OBJECTID": 85, "WARD": 8, "LOCATION": "Morris Rd./Erie St. SE form Pomeroy to Bruce PL. SE", "COUNT_": 1, "INSTALLYEAR": "FY-09", "X": 401285.37001514999, "Y": 132171.48002409001 }, "geometry": { "type": "Point", "coordinates": [ -76.985193136156866, 38.857362721173928 ] } },
{ "type": "Feature", "properties": { "OBJECTID": 86, "WARD": 8, "LOCATION": "Morris Rd./Erie St. SE from Pomeroy to Bruce PL. SE", "COUNT_": 1, "INSTALLYEAR": "FY-09", "X": 401285.37001514999, "Y": 132171.48002409001 }, "geometry": { "type": "Point", "coordinates": [ -76.985193136156866, 38.857362721173928 ] } },
{ "type": "Feature", "properties": { "OBJECTID": 87, "WARD": 8, "LOCATION": "100 Blk Elmira St. SW", "COUNT_": 1, "INSTALLYEAR": "FY-09", "X": 399075.82959709998, "Y": 128696.74395685999 }, "geometry": { "type": "Point", "coordinates": [ -77.010645264062802, 38.826061189567007 ] } },
{ "type": "Feature", "properties": { "OBJECTID": 88, "WARD": 8, "LOCATION": "Unit Blk. Of Darrington Street SW", "COUNT_": 1, "INSTALLYEAR": "FY-09", "X": 399075.7144611, "Y": 128801.54117296 }, "geometry": { "type": "Point", "coordinates": [ -77.010646731373313, 38.827005252470954 ] } },
{ "type": "Feature", "properties": { "OBJECTID": 89, "WARD": 8, "LOCATION": "Mississippi Ave from 6th St to 7th St SE", "COUNT_": 1, "INSTALLYEAR": "FY-09", "X": 400218.71007815999, "Y": 130020.78255009001 }, "geometry": { "type": "Point", "coordinates": [ -76.997483137337909, 38.837989201951174 ] } },
{ "type": "Feature", "properties": { "OBJECTID": 90, "WARD": 2, "LOCATION": "1300 5th St NW", "COUNT_": 2, "INSTALLYEAR": "FY-09", "X": 398357.46009243, "Y": 137708.86002922 }, "geometry": { "type": "Point", "coordinates": [ -77.018939728441225, 38.907244992629273 ] } },
{ "type": "Feature", "properties": { "OBJECTID": 91, "WARD": 3, "LOCATION": "4400 blk Newark St. NW", "COUNT_": 2, "INSTALLYEAR": "FY-09", "X": 392409.65903091, "Y": 140744.93625604 }, "geometry": { "type": "Point", "coordinates": [ -77.087547649901339, 38.934563702767086 ] } },
{ "type": "Feature", "properties": { "OBJECTID": 92, "WARD": 3, "LOCATION": "2700 Block of 35th Street, NW", "COUNT_": 2, "INSTALLYEAR": "FY-09", "X": 394048.61970442999, "Y": 139766.70006313 }, "geometry": { "type": "Point", "coordinates": [ -77.068635753887804, 38.925764081009362 ] } },
{ "type": "Feature", "properties": { "OBJECTID": 93, "WARD": 4, "LOCATION": "5800 4th St NW", "COUNT_": 2, "INSTALLYEAR": "FY-09", "X": 398458.9, "Y": 143608.06 }, "geometry": { "type": "Point", "coordinates": [ -77.017783441289566, 38.960386961389055 ] } },
{ "type": "Feature", "properties": { "OBJECTID": 94, "WARD": 4, "LOCATION": "300-400 Blk. Of  Quackenbos Street  NE", "COUNT_": 2, "INSTALLYEAR": "FY-09", "X": 399777.87, "Y": 144004.71 }, "geometry": { "type": "Point", "coordinates": [ -77.002565343589779, 38.963961410108332 ] } },
{ "type": "Feature", "properties": { "OBJECTID": 95, "WARD": 4, "LOCATION": "900 Longfellow Street", "COUNT_": 2, "INSTALLYEAR": "FY-09", "X": 397748.13, "Y": 143250.11 }, "geometry": { "type": "Point", "coordinates": [ -77.025983102942391, 38.95716091955692 ] } },
{ "type": "Feature", "properties": { "OBJECTID": 96, "WARD": 4, "LOCATION": "800 Otis Place    NW", "COUNT_": 2, "INSTALLYEAR": "FY-09", "X": 397875.0, "Y": 140676.39 }, "geometry": { "type": "Point", "coordinates": [ -77.024511374267135, 38.933976436217861 ] } },
{ "type": "Feature", "properties": { "OBJECTID": 97, "WARD": 4, "LOCATION": "300 Blk. Of Gallatin  Street  NW", "COUNT_": 2, "INSTALLYEAR": "FY-09", "X": 398548.16201261, "Y": 142696.65411385 }, "geometry": { "type": "Point", "coordinates": [ -77.016751609800011, 38.95217692788934 ] } },
{ "type": "Feature", "properties": { "OBJECTID": 98, "WARD": 4, "LOCATION": "500-600 Jefferson Street  NW", "COUNT_": 2, "INSTALLYEAR": "FY-09", "X": 398225.38, "Y": 143071.99 }, "geometry": { "type": "Point", "coordinates": [ -77.020476398718756, 38.955557461539534 ] } },
{ "type": "Feature", "properties": { "OBJECTID": 99, "WARD": 4, "LOCATION": "200 Jefferson Street  NW", "COUNT_": 2, "INSTALLYEAR": "FY-09", "X": 398796.54, "Y": 143088.37 }, "geometry": { "type": "Point", "coordinates": [ -77.013886851412593, 38.955705985438698 ] } },
{ "type": "Feature", "properties": { "OBJECTID": 100, "WARD": 4, "LOCATION": "Oglethorpe Street", "COUNT_": 2, "INSTALLYEAR": "FY-09", "X": 398054.55999615003, "Y": 143711.83001880001 }, "geometry": { "type": "Point", "coordinates": [ -77.022448995348782, 38.961320945480992 ] } },
{ "type": "Feature", "properties": { "OBJECTID": 101, "WARD": 4, "LOCATION": "1500 Blk. Of Roxanna Street ", "COUNT_": 2, "INSTALLYEAR": "FY-09", "X": 396953.51756313001, "Y": 146888.41811773999 }, "geometry": { "type": "Point", "coordinates": [ -77.035167067451866, 38.989933251406256 ] } },
{ "type": "Feature", "properties": { "OBJECTID": 102, "WARD": 4, "LOCATION": "Unit blk. Of Madison  NW", "COUNT_": 2, "INSTALLYEAR": "FY-09", "X": 398977.45, "Y": 143402.69 }, "geometry": { "type": "Point", "coordinates": [ -77.011800124554654, 38.958537692160704 ] } },
{ "type": "Feature", "properties": { "OBJECTID": 103, "WARD": 5, "LOCATION": "2200 blk S St.  Bewteen 22nd & 24th St NE", "COUNT_": 2, "INSTALLYEAR": "FY-09", "X": 402326.89504010999, "Y": 138468.28150193 }, "geometry": { "type": "Point", "coordinates": [ -76.973172086131385, 38.914084578030348 ] } },
{ "type": "Feature", "properties": { "OBJECTID": 104, "WARD": 5, "LOCATION": "1200-1300 blk. Kearney Street NE BET. 12th # 13th ", "COUNT_": 2, "INSTALLYEAR": "FY-09", "X": 400894.48758278001, "Y": 140304.72652763 }, "geometry": { "type": "Point", "coordinates": [ -76.989686028463908, 38.930630493113277 ] } },
{ "type": "Feature", "properties": { "OBJECTID": 105, "WARD": 5, "LOCATION": "Girard st., N.E. Bet. North Capitol st. and Franklin st.", "COUNT_": 2, "INSTALLYEAR": "FY-09", "X": 399503.15001349, "Y": 139825.25999918999 }, "geometry": { "type": "Point", "coordinates": [ -77.005732182382118, 38.926311622924324 ] } },
{ "type": "Feature", "properties": { "OBJECTID": 106, "WARD": 5, "LOCATION": "100 Blk Adams St btw 1st & 2nd St  NW ", "COUNT_": 2, "INSTALLYEAR": "FY-09", "X": 398710.23999675998, "Y": 139150.99001456 }, "geometry": { "type": "Point", "coordinates": [ -77.014875109087441, 38.920236775322877 ] } },
{ "type": "Feature", "properties": { "OBJECTID": 107, "WARD": 5, "LOCATION": "1000 Douglas street NE bet. 10th and 12th street", "COUNT_": 2, "INSTALLYEAR": "FY-09", "X": 400749.91439865, "Y": 139515.40771090001 }, "geometry": { "type": "Point", "coordinates": [ -76.991354274289492, 38.923520195395781 ] } },
{ "type": "Feature", "properties": { "OBJECTID": 108, "WARD": 5, "LOCATION": "2400 Kalarama road NW", "COUNT_": 2, "INSTALLYEAR": "FY-09", "X": 395359.06, "Y": 138924.19 }, "geometry": { "type": "Point", "coordinates": [ -77.053517590253719, 38.91818237725014 ] } },
{ "type": "Feature", "properties": { "OBJECTID": 109, "WARD": 5, "LOCATION": "2200 Kalarama road NW", "COUNT_": 2, "INSTALLYEAR": "FY-09", "X": 395679.93, "Y": 138872.93 }, "geometry": { "type": "Point", "coordinates": [ -77.049817273156222, 38.917722246313915 ] } },
{ "type": "Feature", "properties": { "OBJECTID": 110, "WARD": 5, "LOCATION": "1200-1300 blk. Kearney Street NE BET. 12TH # 13th ", "COUNT_": 2, "INSTALLYEAR": "FY-09", "X": 400894.48758278001, "Y": 140304.72652763 }, "geometry": { "type": "Point", "coordinates": [ -76.989686028463908, 38.930630493113277 ] } },
{ "type": "Feature", "properties": { "OBJECTID": 111, "WARD": 5, "LOCATION": "Lawrence Street NE  bet. 15th and 16th Street", "COUNT_": 2, "INSTALLYEAR": "FY-09", "X": 401505.21999935003, "Y": 140454.09999977 }, "geometry": { "type": "Point", "coordinates": [ -76.98264203381845, 38.931975261935506 ] } },
{ "type": "Feature", "properties": { "OBJECTID": 112, "WARD": 5, "LOCATION": "Lawrence Street NE bet. 13th and 14th Street", "COUNT_": 2, "INSTALLYEAR": "FY-09", "X": 401189.05001506, "Y": 140433.89999974999 }, "geometry": { "type": "Point", "coordinates": [ -76.986288572756848, 38.931793778737656 ] } },
{ "type": "Feature", "properties": { "OBJECTID": 113, "WARD": 5, "LOCATION": "10th Street NE bet. Girard & Irving St (2900-3000 Blk)", "COUNT_": 2, "INSTALLYEAR": "FY-09", "X": 400655.85001455998, "Y": 140069.63001542 }, "geometry": { "type": "Point", "coordinates": [ -76.99243849516894, 38.928512881069601 ] } },
{ "type": "Feature", "properties": { "OBJECTID": 114, "WARD": 7, "LOCATION": "100 Blk 58th St SE  ", "COUNT_": 2, "INSTALLYEAR": "FY-09", "X": 407163.81968459999, "Y": 135613.14201128 }, "geometry": { "type": "Point", "coordinates": [ -76.917429858805377, 38.888338354645519 ] } },
{ "type": "Feature", "properties": { "OBJECTID": 115, "WARD": 7, "LOCATION": "4700 Blk Blaine St NE,", "COUNT_": 2, "INSTALLYEAR": "FY-09", "X": 405692.42995523999, "Y": 136006.96527565 }, "geometry": { "type": "Point", "coordinates": [ -76.93438628765395, 38.891896819081438 ] } },
{ "type": "Feature", "properties": { "OBJECTID": 116, "WARD": 7, "LOCATION": "400 Blk 57th St  NE,  ", "COUNT_": 2, "INSTALLYEAR": "FY-09", "X": 407013.89814846002, "Y": 136378.28370798999 }, "geometry": { "type": "Point", "coordinates": [ -76.919150090063596, 38.895232242759285 ] } },
{ "type": "Feature", "properties": { "OBJECTID": 117, "WARD": 7, "LOCATION": "5200 Blk Ames St NE ", "COUNT_": 2, "INSTALLYEAR": "FY-09", "X": 406332.36473983002, "Y": 135883.94757953001 }, "geometry": { "type": "Point", "coordinates": [ -76.927010968235905, 38.890784253865782 ] } },
{ "type": "Feature", "properties": { "OBJECTID": 118, "WARD": 7, "LOCATION": "5400 D St. SE", "COUNT_": 2, "INSTALLYEAR": "FY-09", "X": 406609.42, "Y": 135043.9 }, "geometry": { "type": "Point", "coordinates": [ -76.923825514539729, 38.883214748861974 ] } },
{ "type": "Feature", "properties": { "OBJECTID": 119, "WARD": 7, "LOCATION": "1700 40th street SE", "COUNT_": 2, "INSTALLYEAR": "FY-09", "X": 404638.28, "Y": 133082.24 }, "geometry": { "type": "Point", "coordinates": [ -76.946557087316648, 38.865555939633765 ] } },
{ "type": "Feature", "properties": { "OBJECTID": 120, "WARD": 7, "LOCATION": "200 blk. of 55th Street NE ", "COUNT_": 2, "INSTALLYEAR": "FY-09", "X": 406722.19581219001, "Y": 136027.58354766 }, "geometry": { "type": "Point", "coordinates": [ -76.922516096547099, 38.892075286073684 ] } },
{ "type": "Feature", "properties": { "OBJECTID": 121, "WARD": 8, "LOCATION": "4300 blk. Of  Halley Terr.   SE", "COUNT_": 3, "INSTALLYEAR": "FY-09", "X": 399420.79929341999, "Y": 128792.07323695 }, "geometry": { "type": "Point", "coordinates": [ -77.006672584220723, 38.826920255793866 ] } },
{ "type": "Feature", "properties": { "OBJECTID": 122, "WARD": 5, "LOCATION": "1800,1900 & 2000 Capitol Ave NE", "COUNT_": 4, "INSTALLYEAR": "FY-09", "X": 401137.41, "Y": 138159.3 }, "geometry": { "type": "Point", "coordinates": [ -76.986887921643174, 38.911303511609866 ] } },
{ "type": "Feature", "properties": { "OBJECTID": 123, "WARD": 5, "LOCATION": "1900-2100 Savannah Terr. Se", "COUNT_": 4, "INSTALLYEAR": "FY-09", "X": 402093.9, "Y": 131215.06 }, "geometry": { "type": "Point", "coordinates": [ -76.97588072377485, 38.848745323140186 ] } },
{ "type": "Feature", "properties": { "OBJECTID": 124, "WARD": 5, "LOCATION": "Unit Blk of Crittenden and Unit Blk of Buchanan, NE", "COUNT_": 4, "INSTALLYEAR": "FY-09", "X": 400657.94, "Y": 142171.3 }, "geometry": { "type": "Point", "coordinates": [ -76.992412377556647, 38.947445346988694 ] } },
{ "type": "Feature", "properties": { "OBJECTID": 125, "WARD": 7, "LOCATION": "Unit blk 54th St. SE", "COUNT_": 4, "INSTALLYEAR": "FY-09", "X": 406635.05891611002, "Y": 135586.61743526001 }, "geometry": { "type": "Point", "coordinates": [ -76.92352477356701, 38.888103560669407 ] } },
{ "type": "Feature", "properties": { "OBJECTID": 126, "WARD": 7, "LOCATION": "5300 & 5400 Blk Blaine St NE", "COUNT_": 4, "INSTALLYEAR": "FY-09", "X": 406537.33, "Y": 136014.15 }, "geometry": { "type": "Point", "coordinates": [ -76.92464715607197, 38.891955665605316 ] } },
{ "type": "Feature", "properties": { "OBJECTID": 127, "WARD": 7, "LOCATION": "Unit  55th St. SE", "COUNT_": 4, "INSTALLYEAR": "FY-09", "X": 406768.19, "Y": 135487.56 }, "geometry": { "type": "Point", "coordinates": [ -76.921991244808211, 38.887210199217179 ] } },
{ "type": "Feature", "properties": { "OBJECTID": 128, "WARD": 7, "LOCATION": "700-800 hilltop terrace SE", "COUNT_": 4, "INSTALLYEAR": "FY-09", "X": 405012.67, "Y": 134726.03 }, "geometry": { "type": "Point", "coordinates": [ -76.942231144576922, 38.880361805199428 ] } },
{ "type": "Feature", "properties": { "OBJECTID": 129, "WARD": 7, "LOCATION": "3000 -3100 blocks of O Street, SE", "COUNT_": 4, "INSTALLYEAR": "FY-09", "X": 403234.07, "Y": 133910.12 }, "geometry": { "type": "Point", "coordinates": [ -76.962733386356945, 38.873020104455371 ] } },
{ "type": "Feature", "properties": { "OBJECTID": 130, "WARD": 7, "LOCATION": "700-800 Hilltop terrace SE", "COUNT_": 4, "INSTALLYEAR": "FY-09", "X": 405012.67, "Y": 134726.03 }, "geometry": { "type": "Point", "coordinates": [ -76.942231144576922, 38.880361805199428 ] } },
{ "type": "Feature", "properties": { "OBJECTID": 131, "WARD": 7, "LOCATION": "3100 & 3000 blocks of Q Street, SE  ", "COUNT_": 3, "INSTALLYEAR": "FY-09", "X": 403275.12, "Y": 133712.72 }, "geometry": { "type": "Point", "coordinates": [ -76.962261273255947, 38.871241693709095 ] } },
{ "type": "Feature", "properties": { "OBJECTID": 132, "WARD": 7, "LOCATION": "3000 - 3100 blocks of M Street, SE", "COUNT_": 3, "INSTALLYEAR": "FY-09", "X": 403087.11, "Y": 134285.64 }, "geometry": { "type": "Point", "coordinates": [ -76.964425242983367, 38.876403466781127 ] } },
{ "type": "Feature", "properties": { "OBJECTID": 133, "WARD": 7, "LOCATION": "5300 Blk. of Ames Street, NE", "COUNT_": 3, "INSTALLYEAR": "FY-09", "X": 406550.76013203, "Y": 135883.72441153001 }, "geometry": { "type": "Point", "coordinates": [ -76.924493591937207, 38.890780643781632 ] } },
{ "type": "Feature", "properties": { "OBJECTID": 134, "WARD": 7, "LOCATION": "5000-5100 blk. Of  Hayes Street  NE", "COUNT_": 3, "INSTALLYEAR": "FY-09", "X": 406059.05, "Y": 136949.83 }, "geometry": { "type": "Point", "coordinates": [ -76.930151985839274, 38.900388037662495 ] } },
{ "type": "Feature", "properties": { "OBJECTID": 135, "WARD": 7, "LOCATION": "5300 Blk. of Ames Street, NE", "COUNT_": 3, "INSTALLYEAR": "FY-09", "X": 406550.76013203, "Y": 135883.72441153001 }, "geometry": { "type": "Point", "coordinates": [ -76.924493591937207, 38.890780643781632 ] } },
{ "type": "Feature", "properties": { "OBJECTID": 136, "WARD": 7, "LOCATION": "3200 blk. Of  E Street  SE", "COUNT_": 3, "INSTALLYEAR": "FY-09", "X": 403415.76444911998, "Y": 135000.92924271 }, "geometry": { "type": "Point", "coordinates": [ -76.960634149186674, 38.882845857459905 ] } },
{ "type": "Feature", "properties": { "OBJECTID": 137, "WARD": 7, "LOCATION": "3100 Blk M Place SE", "COUNT_": 3, "INSTALLYEAR": "FY-09", "X": 403251.68246496998, "Y": 134270.76553003001 }, "geometry": { "type": "Point", "coordinates": [ -76.962528717689452, 38.876268878276548 ] } },
{ "type": "Feature", "properties": { "OBJECTID": 138, "WARD": 7, "LOCATION": "1000 Blk 45Th St NE", "COUNT_": 3, "INSTALLYEAR": "FY-09", "X": 405417.24163498002, "Y": 137333.32518088 }, "geometry": { "type": "Point", "coordinates": [ -76.937547892166549, 38.903846887661473 ] } },
{ "type": "Feature", "properties": { "OBJECTID": 139, "WARD": 7, "LOCATION": "4600 Hillside Terr. SE", "COUNT_": 3, "INSTALLYEAR": "FY-09", "X": 405736.97, "Y": 134321.52 }, "geometry": { "type": "Point", "coordinates": [ -76.933886949250351, 38.876713393424758 ] } },
{ "type": "Feature", "properties": { "OBJECTID": 140, "WARD": 7, "LOCATION": "1100 Blk 45 Place St NE", "COUNT_": 3, "INSTALLYEAR": "FY-09", "X": 405455.38793902, "Y": 137517.83609304999 }, "geometry": { "type": "Point", "coordinates": [ -76.937106644935454, 38.905508790401854 ] } },
{ "type": "Feature", "properties": { "OBJECTID": 141, "WARD": 8, "LOCATION": "6th St from Atlantic to Galveston St SE", "COUNT_": 3, "INSTALLYEAR": "FY-09", "X": 400027.11001398001, "Y": 128460.09000464001 }, "geometry": { "type": "Point", "coordinates": [ -76.99969008245435, 38.823929784123038 ] } },
{ "type": "Feature", "properties": { "OBJECTID": 142, "WARD": 8, "LOCATION": "900-1200 Blk Mississippi Ave SE", "COUNT_": 4, "INSTALLYEAR": "FY-09", "X": 400692.6, "Y": 130157.38 }, "geometry": { "type": "Point", "coordinates": [ -76.992024649134635, 38.839219488473553 ] } },
{ "type": "Feature", "properties": { "OBJECTID": 143, "WARD": 8, "LOCATION": "300 Raleigh Street SE", "COUNT_": 4, "INSTALLYEAR": "FY-09", "X": 399839.11, "Y": 130707.98 }, "geometry": { "type": "Point", "coordinates": [ -77.001855601219319, 38.844179798415723 ] } },
{ "type": "Feature", "properties": { "OBJECTID": 144, "WARD": 3, "LOCATION": "3400-3600 Newark Street  NW", "COUNT_": 5, "INSTALLYEAR": "FY-09", "X": 394214.16, "Y": 140724.52 }, "geometry": { "type": "Point", "coordinates": [ -77.06673475902889, 38.934393523751915 ] } },
{ "type": "Feature", "properties": { "OBJECTID": 145, "WARD": 7, "LOCATION": "3500 Blk texas Ave SE ", "COUNT_": 5, "INSTALLYEAR": "FY-09", "X": 404040.14828969998, "Y": 133462.68904927999 }, "geometry": { "type": "Point", "coordinates": [ -76.953446901998149, 38.868986131842433 ] } },
{ "type": "Feature", "properties": { "OBJECTID": 146, "WARD": 7, "LOCATION": "1600 - 1700 38th street SE", "COUNT_": 5, "INSTALLYEAR": "FY-09", "X": 404220.02000187, "Y": 133579.55000938999 }, "geometry": { "type": "Point", "coordinates": [ -76.951373490240982, 38.870038018052739 ] } },
{ "type": "Feature", "properties": { "OBJECTID": 147, "WARD": 8, "LOCATION": "3200 block Pope Street SE", "COUNT_": 5, "INSTALLYEAR": "FY-09", "X": 403547.85772924998, "Y": 133942.63240972999 }, "geometry": { "type": "Point", "coordinates": [ -76.95911718015094, 38.87331177968013 ] } },
{ "type": "Feature", "properties": { "OBJECTID": 148, "WARD": 8, "LOCATION": "Brandywine Street SE", "COUNT_": 5, "INSTALLYEAR": "FY-09", "X": 399950.43001390999, "Y": 129143.86002127999 }, "geometry": { "type": "Point", "coordinates": [ -77.000573172422534, 38.830089505150696 ] } },
{ "type": "Feature", "properties": { "OBJECTID": 149, "WARD": 5, "LOCATION": "1100 Blk Galloway St NE btw S. Dakota & Sargeant Rd", "COUNT_": 6, "INSTALLYEAR": "FY-09", "X": 401005.85001489002, "Y": 142815.24000195999 }, "geometry": { "type": "Point", "coordinates": [ -76.988397989896015, 38.953245806602318 ] } },
{ "type": "Feature", "properties": { "OBJECTID": 150, "WARD": 7, "LOCATION": "3300-3700- Carpenter st SE", "COUNT_": 6, "INSTALLYEAR": "FY-09", "X": 403787.57, "Y": 133637.42 }, "geometry": { "type": "Point", "coordinates": [ -76.956356445807586, 38.870561303197647 ] } },
{ "type": "Feature", "properties": { "OBJECTID": 151, "WARD": 8, "LOCATION": "1600-4200 Blks Fort Dupont St SE", "COUNT_": 7, "INSTALLYEAR": "FY-09", "X": 404864.04000247002, "Y": 133432.63999326 }, "geometry": { "type": "Point", "coordinates": [ -76.943953259770112, 38.86871126700705 ] } },
{ "type": "Feature", "properties": { "OBJECTID": 152, "WARD": 7, "LOCATION": "4000-4300 Anacostia Ave", "COUNT_": 10, "INSTALLYEAR": "FY-09", "X": 404935.49, "Y": 137653.1 }, "geometry": { "type": "Point", "coordinates": [ -76.943099619561849, 38.906730367895562 ] } },
{ "type": "Feature", "properties": { "OBJECTID": 153, "WARD": 1, "LOCATION": "Newton st Nw 1400 blk                                   (2)  12Ft", "COUNT_": 2, "INSTALLYEAR": "FY-07", "X": 397161.73001131997, "Y": 140443.45999976 }, "geometry": { "type": "Point", "coordinates": [ -77.032737044361326, 38.931876116812298 ] } },
{ "type": "Feature", "properties": { "OBJECTID": 154, "WARD": 1, "LOCATION": "3600 Blk 11th ST NW", "COUNT_": 2, "INSTALLYEAR": "FY-07", "X": 397529.54876366002, "Y": 140820.54576010999 }, "geometry": { "type": "Point", "coordinates": [ -77.028496220274477, 38.935274131249827 ] } },
{ "type": "Feature", "properties": { "OBJECTID": 155, "WARD": 1, "LOCATION": "3500 Blk 10th ST NW", "COUNT_": 1, "INSTALLYEAR": "FY-07", "X": 397628.83013974997, "Y": 140648.85590395 }, "geometry": { "type": "Point", "coordinates": [ -77.02735052567796, 38.933727770493789 ] } },
{ "type": "Feature", "properties": { "OBJECTID": 156, "WARD": 1, "LOCATION": "600 Blk Quebec PL NW", "COUNT_": 1, "INSTALLYEAR": "FY-07", "X": 398244.35116432002, "Y": 140953.11152024 }, "geometry": { "type": "Point", "coordinates": [ -77.020252100899455, 38.936470042749882 ] } },
{ "type": "Feature", "properties": { "OBJECTID": 157, "WARD": 1, "LOCATION": "700 Blk Faimont ST NW", "COUNT_": 1, "INSTALLYEAR": "FY-07", "X": 397904.98534001003, "Y": 139683.60134306 }, "geometry": { "type": "Point", "coordinates": [ -77.024162502006334, 38.92503315881789 ] } },
{ "type": "Feature", "properties": { "OBJECTID": 158, "WARD": 2, "LOCATION": "Wallach Pl NW 1300 blk                    (2) 12Ft", "COUNT_": 2, "INSTALLYEAR": "FY-07", "X": 397904.98534001003, "Y": 139683.60134306 }, "geometry": { "type": "Point", "coordinates": [ -77.024162502006334, 38.92503315881789 ] } },
{ "type": "Feature", "properties": { "OBJECTID": 159, "WARD": 3, "LOCATION": "Upton St & 38th st NW ( 2 cross walks , (2) 12Ft)", "COUNT_": 2, "INSTALLYEAR": "FY-07", "X": 393532.31000795, "Y": 141594.24000083 }, "geometry": { "type": "Point", "coordinates": [ -77.074607246377141, 38.942223461804836 ] } },
{ "type": "Feature", "properties": { "OBJECTID": 160, "WARD": 3, "LOCATION": "46th bet Fessenden st NW  (3) 12 ft", "COUNT_": 3, "INSTALLYEAR": "FY-07", "X": 392146.37999067002, "Y": 142981.61001812 }, "geometry": { "type": "Point", "coordinates": [ -77.090609857538723, 38.954709974533095 ] } },
{ "type": "Feature", "properties": { "OBJECTID": 161, "WARD": 4, "LOCATION": "Aspen st NW 700 & 800 blk             (2)  12Ft", "COUNT_": 2, "INSTALLYEAR": "FY-07", "X": 397899.5, "Y": 144917.22 }, "geometry": { "type": "Point", "coordinates": [ -77.0242417887751, 38.972179038090047 ] } },
{ "type": "Feature", "properties": { "OBJECTID": 162, "WARD": 4, "LOCATION": "Farragut Pl NW unit blk    (2) 12Ft", "COUNT_": 2, "INSTALLYEAR": "FY-07", "X": 399076.17001310003, "Y": 142717.93001787001 }, "geometry": { "type": "Point", "coordinates": [ -77.01066020369781, 38.952369300992807 ] } },
{ "type": "Feature", "properties": { "OBJECTID": 163, "WARD": 4, "LOCATION": "900 Blk Hamilton ST NW   (2)", "COUNT_": 2, "INSTALLYEAR": "FY-07", "X": 397694.41177180997, "Y": 142781.11974592999 }, "geometry": { "type": "Point", "coordinates": [ -77.026601297152851, 38.952935990810317 ] } },
{ "type": "Feature", "properties": { "OBJECTID": 164, "WARD": 4, "LOCATION": "4000 Blk 8th ST Bet Taylor ST & Randolph ST", "COUNT_": 1, "INSTALLYEAR": "FY-07", "X": 397989.53001208999, "Y": 141203.78000047 }, "geometry": { "type": "Point", "coordinates": [ -77.023191966419077, 38.938727592889514 ] } },
{ "type": "Feature", "properties": { "OBJECTID": 165, "WARD": 5, "LOCATION": "7th st NE bet Taylor & Randulph st         (2)  12Ft", "COUNT_": 2, "INSTALLYEAR": "FY-07", "X": 400383.15775830997, "Y": 141346.5378246 }, "geometry": { "type": "Point", "coordinates": [ -76.995582689436134, 38.940015815127744 ] } },
{ "type": "Feature", "properties": { "OBJECTID": 166, "WARD": 5, "LOCATION": "2400 Blk 14th ST Bet Downing & Saratoga AV NE (2)", "COUNT_": 2, "INSTALLYEAR": "FY-07", "X": 401279.60617514001, "Y": 139330.92332673 }, "geometry": { "type": "Point", "coordinates": [ -76.985246213513733, 38.921857689137987 ] } },
{ "type": "Feature", "properties": { "OBJECTID": 167, "WARD": 5, "LOCATION": "Lincoln Rd & T ST NE (2)", "COUNT_": 2, "INSTALLYEAR": "FY-07", "X": 399296.85999730002, "Y": 138468.09001392999 }, "geometry": { "type": "Point", "coordinates": [ -77.008109820464981, 38.914085650701352 ] } },
{ "type": "Feature", "properties": { "OBJECTID": 168, "WARD": 6, "LOCATION": "Oklahoma ave Ne 500 blk                   (3) 12Ft", "COUNT_": 3, "INSTALLYEAR": "FY-07", "X": 402507.02, "Y": 136489.79 }, "geometry": { "type": "Point", "coordinates": [ -76.971102381702835, 38.896261136030923 ] } },
{ "type": "Feature", "properties": { "OBJECTID": 169, "WARD": 6, "LOCATION": "1500 Blk Gayles ST NE  (1)   22ft", "COUNT_": 1, "INSTALLYEAR": "FY-07", "X": 401472.92, "Y": 136733.77 }, "geometry": { "type": "Point", "coordinates": [ -76.983022540363365, 38.898461337200139 ] } },
{ "type": "Feature", "properties": { "OBJECTID": 170, "WARD": 7, "LOCATION": "32nd st SE bet. Alabama & Park Dr SE       (3) 12Ft", "COUNT_": 3, "INSTALLYEAR": "FY-07", "X": 403343.07001705997, "Y": 133090.91000894 }, "geometry": { "type": "Point", "coordinates": [ -76.961481271403528, 38.865639919221728 ] } },
{ "type": "Feature", "properties": { "OBJECTID": 171, "WARD": 7, "LOCATION": "34th st SE 2300 Blk         (2) 12Ft", "COUNT_": 2, "INSTALLYEAR": "FY-07", "X": 403710.04, "Y": 132635.05 }, "geometry": { "type": "Point", "coordinates": [ -76.957255266221253, 38.861531871235535 ] } },
{ "type": "Feature", "properties": { "OBJECTID": 172, "WARD": 7, "LOCATION": "Bangor st SE 3400 blk           (1) 22Ft", "COUNT_": 1, "INSTALLYEAR": "FY-07", "X": 403702.69, "Y": 132536.89 }, "geometry": { "type": "Point", "coordinates": [ -76.957340481272908, 38.860647635698001 ] } },
{ "type": "Feature", "properties": { "OBJECTID": 173, "WARD": 7, "LOCATION": "E st SE bet. Benning rd & Falls Ter   (2)  22Ft", "COUNT_": 2, "INSTALLYEAR": "FY-07", "X": 405515.66000307002, "Y": 135061.51999477 }, "geometry": { "type": "Point", "coordinates": [ -76.936431482613841, 38.883381017786078 ] } },
{ "type": "Feature", "properties": { "OBJECTID": 174, "WARD": 7, "LOCATION": "48th pl NE 500 blk   (4)  12Ft", "COUNT_": 4, "INSTALLYEAR": "FY-07", "X": 405700.18, "Y": 136400.32 }, "geometry": { "type": "Point", "coordinates": [ -76.934293690167067, 38.895440253258414 ] } },
{ "type": "Feature", "properties": { "OBJECTID": 175, "WARD": 7, "LOCATION": "Jay st NE 4900 blk                                    (2)  12Ft", "COUNT_": 2, "INSTALLYEAR": "FY-07", "X": 405944.34, "Y": 137094.07 }, "geometry": { "type": "Point", "coordinates": [ -76.931473143737648, 38.901688186086389 ] } },
{ "type": "Feature", "properties": { "OBJECTID": 176, "WARD": 7, "LOCATION": "54th St between C&D st   NE         (2) 22Ft", "COUNT_": 2, "INSTALLYEAR": "FY-07", "X": 406576.72000406001, "Y": 135025.91001073999 }, "geometry": { "type": "Point", "coordinates": [ -76.924202569864178, 38.883052933222423 ] } },
{ "type": "Feature", "properties": { "OBJECTID": 177, "WARD": 7, "LOCATION": "57th Pl NE 200 blk         (3)  12Ft", "COUNT_": 3, "INSTALLYEAR": "FY-07", "X": 407041.32, "Y": 135913.95 }, "geometry": { "type": "Point", "coordinates": [ -76.918838745241032, 38.891049134949419 ] } },
{ "type": "Feature", "properties": { "OBJECTID": 178, "WARD": 7, "LOCATION": "3600 Blk Suitland Rd SE (3)", "COUNT_": 3, "INSTALLYEAR": "FY-07", "X": 403894.23779356998, "Y": 132785.33288865999 }, "geometry": { "type": "Point", "coordinates": [ -76.955132091618111, 38.862884886012154 ] } },
{ "type": "Feature", "properties": { "OBJECTID": 179, "WARD": 7, "LOCATION": "3700 Blk Suitland Rd SE (2)", "COUNT_": 2, "INSTALLYEAR": "FY-07", "X": 404087.16051374999, "Y": 132728.86031260001 }, "geometry": { "type": "Point", "coordinates": [ -76.952909533715442, 38.862375282289129 ] } },
{ "type": "Feature", "properties": { "OBJECTID": 180, "WARD": 7, "LOCATION": "5000 Blk Hanna PL SE (2)", "COUNT_": 2, "INSTALLYEAR": "FY-07", "X": 405989.80189151003, "Y": 134636.54469837001 }, "geometry": { "type": "Point", "coordinates": [ -76.930970460873695, 38.879549573618974 ] } },
{ "type": "Feature", "properties": { "OBJECTID": 181, "WARD": 7, "LOCATION": "4100 & 4200 Blk Hayes ST NE (6)", "COUNT_": 6, "INSTALLYEAR": "FY-07", "X": 404839.13, "Y": 136857.92 }, "geometry": { "type": "Point", "coordinates": [ -76.944216183066899, 38.899567641103573 ] } },
{ "type": "Feature", "properties": { "OBJECTID": 182, "WARD": 8, "LOCATION": "34th st SE 2300 blk        (5)  12Ft", "COUNT_": 5, "INSTALLYEAR": "FY-07", "X": 403710.04, "Y": 132635.05 }, "geometry": { "type": "Point", "coordinates": [ -76.957255266221253, 38.861531871235535 ] } },
{ "type": "Feature", "properties": { "OBJECTID": 183, "WARD": 8, "LOCATION": "12th Pl SE 2600 blk  (1)  22Ft", "COUNT_": 1, "INSTALLYEAR": "FY-07", "X": 401278.01001514, "Y": 131483.22002345001 }, "geometry": { "type": "Point", "coordinates": [ -76.985279211511212, 38.8511625891108 ] } },
{ "type": "Feature", "properties": { "OBJECTID": 184, "WARD": 8, "LOCATION": "600 blk Atlantic st ( 3) 12ft", "COUNT_": 3, "INSTALLYEAR": "FY-07", "X": 400297.84047822998, "Y": 129240.89330137 }, "geometry": { "type": "Point", "coordinates": [ -76.99657203562866, 38.830963577559316 ] } },
{ "type": "Feature", "properties": { "OBJECTID": 185, "WARD": 8, "LOCATION": "400 blk-600blk Lebuam st. SE (6) 12ft", "COUNT_": 6, "INSTALLYEAR": "FY-07", "X": 399874.28, "Y": 131207.37 }, "geometry": { "type": "Point", "coordinates": [ -77.001450563149831, 38.848678530401465 ] } },
{ "type": "Feature", "properties": { "OBJECTID": 186, "WARD": 8, "LOCATION": "500 blk Labaum st se (3) 12ft", "COUNT_": 3, "INSTALLYEAR": "FY-07", "X": 400183.09462212003, "Y": 131022.19496702 }, "geometry": { "type": "Point", "coordinates": [ -76.997893096497819, 38.847010381892126 ] } },
{ "type": "Feature", "properties": { "OBJECTID": 187, "WARD": 8, "LOCATION": "600 blk  Galveston PL se(2) 12ft", "COUNT_": 2, "INSTALLYEAR": "FY-07", "X": 400072.4, "Y": 128540.88 }, "geometry": { "type": "Point", "coordinates": [ -76.999168518217758, 38.824657576242473 ] } },
{ "type": "Feature", "properties": { "OBJECTID": 188, "WARD": 8, "LOCATION": "1600 blk Fairlawn Av", "COUNT_": 1, "INSTALLYEAR": "FY-07", "X": 401604.88345543999, "Y": 133761.86127356 }, "geometry": { "type": "Point", "coordinates": [ -76.981508212020586, 38.871689011597809 ] } },
{ "type": "Feature", "properties": { "OBJECTID": 189, "WARD": 8, "LOCATION": "3400 Blk 23rd ST SE   (3)  12 ft ", "COUNT_": 3, "INSTALLYEAR": "FY-07", "X": 402545.42, "Y": 131094.26 }, "geometry": { "type": "Point", "coordinates": [ -76.970679697580636, 38.84765591316539 ] } },
{ "type": "Feature", "properties": { "OBJECTID": 190, "WARD": 8, "LOCATION": "2200 Blk Prout ST SE (2)", "COUNT_": 2, "INSTALLYEAR": "FY-07", "X": 402234.69737602997, "Y": 133910.13112969999 }, "geometry": { "type": "Point", "coordinates": [ -76.974249992809078, 38.873023311777395 ] } },
{ "type": "Feature", "properties": { "OBJECTID": 191, "WARD": 8, "LOCATION": "1600 & 1700 Blk 16th ST SE (3)", "COUNT_": 3, "INSTALLYEAR": "FY-07", "X": 401560.99, "Y": 133498.3 }, "geometry": { "type": "Point", "coordinates": [ -76.982014621688222, 38.869314823707427 ] } },
{ "type": "Feature", "properties": { "OBJECTID": 192, "WARD": 8, "LOCATION": "800 Blk Xenia St SE (3)", "COUNT_": 3, "INSTALLYEAR": "FY-07", "X": 400588.46499050001, "Y": 129470.04235757999 }, "geometry": { "type": "Point", "coordinates": [ -76.993224703148655, 38.833027712308478 ] } },
{ "type": "Feature", "properties": { "OBJECTID": 193, "WARD": 8, "LOCATION": "700 Blk Upsal ST SE (3)", "COUNT_": 3, "INSTALLYEAR": "FY-07", "X": 400452.96143837, "Y": 130184.00837424 }, "geometry": { "type": "Point", "coordinates": [ -76.994784879884023, 38.839459524854725 ] } },
{ "type": "Feature", "properties": { "OBJECTID": 194, "WARD": 8, "LOCATION": "700 Blk Mississippi AV SE (2)", "COUNT_": 2, "INSTALLYEAR": "FY-07", "X": 400430.37052634999, "Y": 130094.86549416 }, "geometry": { "type": "Point", "coordinates": [ -76.995045147491552, 38.838656496741152 ] } },
{ "type": "Feature", "properties": { "OBJECTID": 195, "WARD": 8, "LOCATION": "2300 Blk Elvans Rd SE (2)", "COUNT_": 2, "INSTALLYEAR": "FY-07", "X": 401417.40041527001, "Y": 132047.11723996999 }, "geometry": { "type": "Point", "coordinates": [ -76.983672228977667, 38.856242205584337 ] } },
{ "type": "Feature", "properties": { "OBJECTID": 196, "WARD": 1, "LOCATION": "3614  10th ST NW (1)", "COUNT_": 1, "INSTALLYEAR": "FY-08", "X": 397622.84, "Y": 140790.23 }, "geometry": { "type": "Point", "coordinates": [ -77.027420103474668, 38.935001295234137 ] } },
{ "type": "Feature", "properties": { "OBJECTID": 197, "WARD": 1, "LOCATION": "Hertford PL NW Bet Oak ST & Ogden ST NW (1)", "COUNT_": 1, "INSTALLYEAR": "FY-08", "X": 396928.19999509997, "Y": 140910.0600002 }, "geometry": { "type": "Point", "coordinates": [ -77.035432515996831, 38.936078605594162 ] } },
{ "type": "Feature", "properties": { "OBJECTID": 198, "WARD": 2, "LOCATION": "440 M ST NW       (12) ", "COUNT_": 1, "INSTALLYEAR": "FY-08", "X": 398442.02, "Y": 137507.66 }, "geometry": { "type": "Point", "coordinates": [ -77.017964349440604, 38.905432666632251 ] } },
{ "type": "Feature", "properties": { "OBJECTID": 199, "WARD": 3, "LOCATION": "5100 Blk Macomb ST NW (1)", "COUNT_": 1, "INSTALLYEAR": "FY-08", "X": 390837.66542944999, "Y": 140549.75958386 }, "geometry": { "type": "Point", "coordinates": [ -77.105676065535221, 38.932790505639538 ] } },
{ "type": "Feature", "properties": { "OBJECTID": 200, "WARD": 4, "LOCATION": "1300 Blk Gallatin ST NW", "COUNT_": 1, "INSTALLYEAR": "FY-08", "X": 397264.14969141001, "Y": 142664.17673782 }, "geometry": { "type": "Point", "coordinates": [ -77.031564658941335, 38.951881301625136 ] } },
{ "type": "Feature", "properties": { "OBJECTID": 201, "WARD": 4, "LOCATION": "500 Blk Decatur St NW (1)", "COUNT_": 1, "INSTALLYEAR": "FY-08", "X": 398241.17414031998, "Y": 142283.16515347001 }, "geometry": { "type": "Point", "coordinates": [ -77.020292155858712, 38.94845154392835 ] } },
{ "type": "Feature", "properties": { "OBJECTID": 202, "WARD": 4, "LOCATION": "5800 3rd Pl NW  (22')", "COUNT_": 1, "INSTALLYEAR": "FY-08", "X": 398517.91999657999, "Y": 143584.19001868 }, "geometry": { "type": "Point", "coordinates": [ -77.017102419153929, 38.960172035873718 ] } },
{ "type": "Feature", "properties": { "OBJECTID": 203, "WARD": 4, "LOCATION": "5100 9th Street NW", "COUNT_": 1, "INSTALLYEAR": "FY-08", "X": 397764.83, "Y": 142691.0 }, "geometry": { "type": "Point", "coordinates": [ -77.025788605257418, 38.952124349683857 ] } },
{ "type": "Feature", "properties": { "OBJECTID": 204, "WARD": 4, "LOCATION": "4400 9th St. NW", "COUNT_": 1, "INSTALLYEAR": "FY-08", "X": 397835.23, "Y": 141830.68 }, "geometry": { "type": "Point", "coordinates": [ -77.024973711434797, 38.944374523523095 ] } },
{ "type": "Feature", "properties": { "OBJECTID": 205, "WARD": 4, "LOCATION": "1400 Decatur St. NW", "COUNT_": 1, "INSTALLYEAR": "FY-08", "X": 397126.56, "Y": 142243.35 }, "geometry": { "type": "Point", "coordinates": [ -77.033150210954361, 38.948089938908829 ] } },
{ "type": "Feature", "properties": { "OBJECTID": 206, "WARD": 5, "LOCATION": "1400 Blk Morse NE (22ft)", "COUNT_": 1, "INSTALLYEAR": "FY-08", "X": 401410.28710325999, "Y": 137034.0373086 }, "geometry": { "type": "Point", "coordinates": [ -76.983743952468984, 38.90116635606956 ] } },
{ "type": "Feature", "properties": { "OBJECTID": 207, "WARD": 5, "LOCATION": "Unit Blk Crittenden St NE", "COUNT_": 1, "INSTALLYEAR": "FY-08", "X": 399353.11481335002, "Y": 142258.49328145001 }, "geometry": { "type": "Point", "coordinates": [ -77.007464750733149, 38.948230816404816 ] } },
{ "type": "Feature", "properties": { "OBJECTID": 208, "WARD": 5, "LOCATION": "Unit Blk Buchanan St NE", "COUNT_": 1, "INSTALLYEAR": "FY-08", "X": 399361.55244535999, "Y": 142171.22553736999 }, "geometry": { "type": "Point", "coordinates": [ -77.007367333065233, 38.947444690259694 ] } },
{ "type": "Feature", "properties": { "OBJECTID": 209, "WARD": 5, "LOCATION": "1400 Blk Morse St. NE", "COUNT_": 1, "INSTALLYEAR": "FY-08", "X": 401410.28710325999, "Y": 137034.0373086 }, "geometry": { "type": "Point", "coordinates": [ -76.983743952468984, 38.90116635606956 ] } },
{ "type": "Feature", "properties": { "OBJECTID": 210, "WARD": 5, "LOCATION": "2300 Blk 14th Street NE", "COUNT_": 1, "INSTALLYEAR": "FY-08", "X": 401442.29343929002, "Y": 139182.93372659001 }, "geometry": { "type": "Point", "coordinates": [ -76.983370459166807, 38.920524299130371 ] } },
{ "type": "Feature", "properties": { "OBJECTID": 211, "WARD": 5, "LOCATION": "U Street NE betw, 1st St. & Summit Place NE ", "COUNT_": 1, "INSTALLYEAR": "FY-08", "X": 399558.51001353998, "Y": 138791.87999823 }, "geometry": { "type": "Point", "coordinates": [ -77.005093080857478, 38.917002629945344 ] } },
{ "type": "Feature", "properties": { "OBJECTID": 212, "WARD": 5, "LOCATION": "100 Blk Randolph Place  between 1st & 2nd NW", "COUNT_": 1, "INSTALLYEAR": "FY-08", "X": 398862.01993289997, "Y": 138386.67846185001 }, "geometry": { "type": "Point", "coordinates": [ -77.01312359659498, 38.913351812190683 ] } },
{ "type": "Feature", "properties": { "OBJECTID": 213, "WARD": 5, "LOCATION": "700 Blk Tuckerman ST (Rapir 1 speed Hump)", "COUNT_": 1, "INSTALLYEAR": "FY-08", "X": 397978.41468407999, "Y": 144375.00461141 }, "geometry": { "type": "Point", "coordinates": [ -77.02332952424031, 38.967294816671398 ] } },
{ "type": "Feature", "properties": { "OBJECTID": 214, "WARD": 5, "LOCATION": "U Street NE Btw 2nd St. & Summit Pl NE", "COUNT_": 1, "INSTALLYEAR": "FY-08", "X": 399558.51001353998, "Y": 138791.87999823 }, "geometry": { "type": "Point", "coordinates": [ -77.005093080857478, 38.917002629945344 ] } },
{ "type": "Feature", "properties": { "OBJECTID": 215, "WARD": 5, "LOCATION": "300 Blk W Street NE", "COUNT_": 1, "INSTALLYEAR": "FY-08", "X": 399886.76559785003, "Y": 139033.78675045 }, "geometry": { "type": "Point", "coordinates": [ -77.001308023797577, 38.919181909675558 ] } },
{ "type": "Feature", "properties": { "OBJECTID": 216, "WARD": 5, "LOCATION": "Unit Blk Quincy Pl NE", "COUNT_": 1, "INSTALLYEAR": "FY-08", "X": 399337.01554933999, "Y": 138221.0901417 }, "geometry": { "type": "Point", "coordinates": [ -77.007646569256138, 38.911860623296462 ] } },
{ "type": "Feature", "properties": { "OBJECTID": 217, "WARD": 6, "LOCATION": "1400 Blk Constitution Ave NE  (12')", "COUNT_": 1, "INSTALLYEAR": "FY-08", "X": 401298.27001515997, "Y": 136023.99189966 }, "geometry": { "type": "Point", "coordinates": [ -76.985037237138002, 38.892067670022776 ] } },
{ "type": "Feature", "properties": { "OBJECTID": 218, "WARD": 6, "LOCATION": "1400 E St. SE", "COUNT_": 1, "INSTALLYEAR": "FY-08", "X": 401274.65, "Y": 135021.02 }, "geometry": { "type": "Point", "coordinates": [ -76.985311362799081, 38.883032552755552 ] } },
{ "type": "Feature", "properties": { "OBJECTID": 219, "WARD": 7, "LOCATION": "2400 Blk Wagner ST SE (1) 22FT", "COUNT_": 1, "INSTALLYEAR": "FY-08", "X": 402418.01200019999, "Y": 132495.20588039001 }, "geometry": { "type": "Point", "coordinates": [ -76.972142480374472, 38.860276597106022 ] } },
{ "type": "Feature", "properties": { "OBJECTID": 220, "WARD": 7, "LOCATION": "6000 Blk Clay Street NE", "COUNT_": 1, "INSTALLYEAR": "FY-08", "X": 407430.01987685001, "Y": 136119.68828375 }, "geometry": { "type": "Point", "coordinates": [ -76.914356076577519, 38.89289930267438 ] } },
{ "type": "Feature", "properties": { "OBJECTID": 221, "WARD": 7, "LOCATION": "4900 Blk Fitch Pl NE", "COUNT_": 1, "INSTALLYEAR": "FY-08", "X": 405839.27715536999, "Y": 136486.82710009001 }, "geometry": { "type": "Point", "coordinates": [ -76.932689519034568, 38.896218628107313 ] } },
{ "type": "Feature", "properties": { "OBJECTID": 222, "WARD": 7, "LOCATION": "300 Blk 59th Street NE", "COUNT_": 1, "INSTALLYEAR": "FY-08", "X": 407251.72147668002, "Y": 136207.80828383 }, "geometry": { "type": "Point", "coordinates": [ -76.916410399525702, 38.893694608745065 ] } },
{ "type": "Feature", "properties": { "OBJECTID": 223, "WARD": 8, "LOCATION": "3800 Blk 4th St SE (1) 22Ft", "COUNT_": 1, "INSTALLYEAR": "FY-08", "X": 399908.29999787, "Y": 129815.3200219 }, "geometry": { "type": "Point", "coordinates": [ -77.001058469605951, 38.836138323688218 ] } },
{ "type": "Feature", "properties": { "OBJECTID": 224, "WARD": 8, "LOCATION": "600 Blk Melon St SE ", "COUNT_": 1, "INSTALLYEAR": "FY-08", "X": 400133.42860608001, "Y": 130948.25547895 }, "geometry": { "type": "Point", "coordinates": [ -76.998465245142256, 38.846344311640692 ] } },
{ "type": "Feature", "properties": { "OBJECTID": 225, "WARD": 1, "LOCATION": "3600 Blk 11th st NW (2)", "COUNT_": 2, "INSTALLYEAR": "FY-08", "X": 397511.3, "Y": 140756.25 }, "geometry": { "type": "Point", "coordinates": [ -77.028706466282046, 38.934694884225813 ] } },
{ "type": "Feature", "properties": { "OBJECTID": 226, "WARD": 1, "LOCATION": "500-600 Blk Gresham Place NW", "COUNT_": 2, "INSTALLYEAR": "FY-08", "X": 398129.32, "Y": 139905.34 }, "geometry": { "type": "Point", "coordinates": [ -77.021576024580796, 38.927031157532426 ] } },
{ "type": "Feature", "properties": { "OBJECTID": 227, "WARD": 3, "LOCATION": "2600 & 2700 Blk Woodley Rd NW", "COUNT_": 2, "INSTALLYEAR": "FY-08", "X": 395340.51, "Y": 139778.29 }, "geometry": { "type": "Point", "coordinates": [ -77.053737290476505, 38.92587628734708 ] } },
{ "type": "Feature", "properties": { "OBJECTID": 228, "WARD": 3, "LOCATION": "45th St. NW  (22')", "COUNT_": 2, "INSTALLYEAR": "FY-08", "X": 392314.59999081999, "Y": 140744.73001604 }, "geometry": { "type": "Point", "coordinates": [ -77.088644037013239, 38.934561018414335 ] } },
{ "type": "Feature", "properties": { "OBJECTID": 229, "WARD": 3, "LOCATION": "45th St. NW  (22')", "COUNT_": 2, "INSTALLYEAR": "FY-08", "X": 392314.59999081999, "Y": 140744.73001604 }, "geometry": { "type": "Point", "coordinates": [ -77.088644037013239, 38.934561018414335 ] } },
{ "type": "Feature", "properties": { "OBJECTID": 230, "WARD": 4, "LOCATION": "5700 Blk 3rd Pl. NW (2)", "COUNT_": 2, "INSTALLYEAR": "FY-08", "X": 398517.87001258001, "Y": 143384.92000248999 }, "geometry": { "type": "Point", "coordinates": [ -77.017102565258412, 38.958376959883878 ] } },
{ "type": "Feature", "properties": { "OBJECTID": 231, "WARD": 4, "LOCATION": "4700 4th Street NW", "COUNT_": 2, "INSTALLYEAR": "FY-08", "X": 398513.49, "Y": 142195.93 }, "geometry": { "type": "Point", "coordinates": [ -77.017150522547439, 38.947666208683458 ] } },
{ "type": "Feature", "properties": { "OBJECTID": 232, "WARD": 4, "LOCATION": "400 Sheridan St. NW", "COUNT_": 2, "INSTALLYEAR": "FY-08", "X": 398436.8999965, "Y": 144246.97001928999 }, "geometry": { "type": "Point", "coordinates": [ -77.018038733288179, 38.966142385135583 ] } },
{ "type": "Feature", "properties": { "OBJECTID": 233, "WARD": 7, "LOCATION": "3000 block N Street  SE", "COUNT_": 2, "INSTALLYEAR": "FY-09", "X": 403163.20672089001, "Y": 134087.18056986001 }, "geometry": { "type": "Point", "coordinates": [ -76.963549188134877, 38.874615394711078 ] } },
{ "type": "Feature", "properties": { "OBJECTID": 234, "WARD": 7, "LOCATION": "2900 & 3000 10th St NE bet. Girard and Irving street", "COUNT_": 2, "INSTALLYEAR": "FY-09", "X": 400655.85001455998, "Y": 140069.63001542 }, "geometry": { "type": "Point", "coordinates": [ -76.99243849516894, 38.928512881069601 ] } },
{ "type": "Feature", "properties": { "OBJECTID": 235, "WARD": 7, "LOCATION": "300 block of Burns Street, NE", "COUNT_": 2, "INSTALLYEAR": "FY-09", "X": 404700.37072231999, "Y": 135315.26681100001 }, "geometry": { "type": "Point", "coordinates": [ -76.945826369957061, 38.885671602466218 ] } },
{ "type": "Feature", "properties": { "OBJECTID": 236, "WARD": 7, "LOCATION": "5300 blk. Of Bass Place  SE", "COUNT_": 2, "INSTALLYEAR": "FY-09", "X": 406518.05354, "Y": 135268.38754696 }, "geometry": { "type": "Point", "coordinates": [ -76.924876427406303, 38.885237700687107 ] } },
{ "type": "Feature", "properties": { "OBJECTID": 237, "WARD": 7, "LOCATION": "1600 blk. Of  28th Place SE", "COUNT_": 2, "INSTALLYEAR": "FY-09", "X": 402885.50480062998, "Y": 133587.86488939999 }, "geometry": { "type": "Point", "coordinates": [ -76.966751546848442, 38.870118312643378 ] } },
{ "type": "Feature", "properties": { "OBJECTID": 238, "WARD": 7, "LOCATION": "4300 blk. G  Street   SE", "COUNT_": 2, "INSTALLYEAR": "FY-09", "X": 404952.17520255002, "Y": 134725.77765845999 }, "geometry": { "type": "Point", "coordinates": [ -76.94292835032627, 38.880359875036866 ] } },
{ "type": "Feature", "properties": { "OBJECTID": 239, "WARD": 7, "LOCATION": "5300 blk. Of Bass Place  SE", "COUNT_": 2, "INSTALLYEAR": "FY-09", "X": 406518.05354, "Y": 135268.38754696 }, "geometry": { "type": "Point", "coordinates": [ -76.924876427406303, 38.885237700687107 ] } },
{ "type": "Feature", "properties": { "OBJECTID": 240, "WARD": 7, "LOCATION": "5600 blk. Of Clay Place ", "COUNT_": 2, "INSTALLYEAR": "FY-09", "X": 406908.45232436003, "Y": 136244.34325986999 }, "geometry": { "type": "Point", "coordinates": [ -76.92036695508753, 38.894026493275334 ] } },
{ "type": "Feature", "properties": { "OBJECTID": 241, "WARD": 7, "LOCATION": "1600 Fort Davis Place", "COUNT_": 2, "INSTALLYEAR": "FY-09", "X": 404649.6, "Y": 133304.77 }, "geometry": { "type": "Point", "coordinates": [ -76.946425146387199, 38.867560521600005 ] } },
{ "type": "Feature", "properties": { "OBJECTID": 242, "WARD": 7, "LOCATION": "4300 of  Polk Street  NE", "COUNT_": 2, "INSTALLYEAR": "FY-09", "X": 405079.81, "Y": 137995.37 }, "geometry": { "type": "Point", "coordinates": [ -76.941433182211398, 38.909812831973461 ] } },
{ "type": "Feature", "properties": { "OBJECTID": 243, "WARD": 8, "LOCATION": "300 36th Street NE", "COUNT_": 2, "INSTALLYEAR": "FY-09", "X": 403890.5, "Y": 136215.56 }, "geometry": { "type": "Point", "coordinates": [ -76.955155744815443, 38.893785737973261 ] } },
{ "type": "Feature", "properties": { "OBJECTID": 244, "WARD": 8, "LOCATION": "Unit - 100 Blk Darrington Street  SW", "COUNT_": 2, "INSTALLYEAR": "FY-09", "X": 403890.5, "Y": 136215.56 }, "geometry": { "type": "Point", "coordinates": [ -76.955155744815443, 38.893785737973261 ] } },
{ "type": "Feature", "properties": { "OBJECTID": 245, "WARD": 1, "LOCATION": "700-900 Block of Euclid Street, NW", "COUNT_": 3, "INSTALLYEAR": "FY-09", "X": 397861.13, "Y": 139586.18 }, "geometry": { "type": "Point", "coordinates": [ -77.024667948457079, 38.924155450843827 ] } },
{ "type": "Feature", "properties": { "OBJECTID": 246, "WARD": 2, "LOCATION": "400 Blk N St. NW", "COUNT_": 3, "INSTALLYEAR": "FY-09", "X": 398477.26802854001, "Y": 137708.55052521999 }, "geometry": { "type": "Point", "coordinates": [ -77.017558418203436, 38.907242420322255 ] } },
{ "type": "Feature", "properties": { "OBJECTID": 247, "WARD": 2, "LOCATION": "400 Blk O St. NW", "COUNT_": 3, "INSTALLYEAR": "FY-09", "X": 398608.72998066002, "Y": 137857.03500536 }, "geometry": { "type": "Point", "coordinates": [ -77.01604304564475, 38.908580238242529 ] } },
{ "type": "Feature", "properties": { "OBJECTID": 248, "WARD": 2, "LOCATION": "2400 blk.  Of    36th  Place.  SE", "COUNT_": 3, "INSTALLYEAR": "FY-09", "X": 403961.99705762998, "Y": 132341.53868023999 }, "geometry": { "type": "Point", "coordinates": [ -76.954353912798652, 38.858886698893407 ] } },
{ "type": "Feature", "properties": { "OBJECTID": 249, "WARD": 3, "LOCATION": "2400-2500 Pomeroy  Rd SE", "COUNT_": 3, "INSTALLYEAR": "FY-09", "X": 400906.61, "Y": 131902.13 }, "geometry": { "type": "Point", "coordinates": [ -76.989557301977641, 38.85493677279743 ] } },
{ "type": "Feature", "properties": { "OBJECTID": 250, "WARD": 4, "LOCATION": "1300 Van Buren Street", "COUNT_": 3, "INSTALLYEAR": "FY-09", "X": 397402.35, "Y": 144646.85 }, "geometry": { "type": "Point", "coordinates": [ -77.029977811048042, 38.969742150589433 ] } },
{ "type": "Feature", "properties": { "OBJECTID": 251, "WARD": 5, "LOCATION": "14TH Street NE bet. Montana Ave. & Saratoga Ave.", "COUNT_": 3, "INSTALLYEAR": "FY-09", "X": 401178.24230305001, "Y": 139487.58889488 }, "geometry": { "type": "Point", "coordinates": [ -76.98641484538625, 38.92326912485089 ] } },
{ "type": "Feature", "properties": { "OBJECTID": 252, "WARD": 5, "LOCATION": "14TH Street NE bet. Montana Ave. & Saratoga Ave.", "COUNT_": 3, "INSTALLYEAR": "FY-09", "X": 401178.24230305001, "Y": 139487.58889488 }, "geometry": { "type": "Point", "coordinates": [ -76.98641484538625, 38.92326912485089 ] } },
{ "type": "Feature", "properties": { "OBJECTID": 253, "WARD": 5, "LOCATION": "1800,1900 & 2000 Galludet St NE", "COUNT_": 3, "INSTALLYEAR": "FY-09", "X": 401196.9, "Y": 138410.36 }, "geometry": { "type": "Point", "coordinates": [ -76.986201563152974, 38.913565066453877 ] } },
{ "type": "Feature", "properties": { "OBJECTID": 254, "WARD": 5, "LOCATION": "4600 blk H street S.E", "COUNT_": 3, "INSTALLYEAR": "FY-09", "X": 405693.26464324002, "Y": 134537.82553028001 }, "geometry": { "type": "Point", "coordinates": [ -76.934388837216531, 38.878662242479678 ] } },
{ "type": "Feature", "properties": { "OBJECTID": 255, "WARD": 5, "LOCATION": "300 W Street NE  4TH &  Rhode Island Ave.", "COUNT_": 3, "INSTALLYEAR": "FY-09", "X": 399886.76559785003, "Y": 139033.78675045 }, "geometry": { "type": "Point", "coordinates": [ -77.001308023797577, 38.919181909675558 ] } },
{ "type": "Feature", "properties": { "OBJECTID": 256, "WARD": 5, "LOCATION": "Lang Place NE bet. 17th and 19th street", "COUNT_": 3, "INSTALLYEAR": "FY-09", "X": 402062.75999986997, "Y": 137390.23001293 }, "geometry": { "type": "Point", "coordinates": [ -76.976220925548517, 38.904373777743224 ] } },
{ "type": "Feature", "properties": { "OBJECTID": 257, "WARD": 5, "LOCATION": "600 morton place, NE", "COUNT_": 3, "INSTALLYEAR": "FY-09", "X": 400135.05001408001, "Y": 137393.59999692999 }, "geometry": { "type": "Point", "coordinates": [ -76.998445304869378, 38.904406545076483 ] } },
{ "type": "Feature", "properties": { "OBJECTID": 258, "WARD": 5, "LOCATION": "600 Orleans place NE", "COUNT_": 3, "INSTALLYEAR": "FY-09", "X": 400166.39, "Y": 137473.2 }, "geometry": { "type": "Point", "coordinates": [ -76.998083969672791, 38.905123604580758 ] } },
{ "type": "Feature", "properties": { "OBJECTID": 259, "WARD": 5, "LOCATION": "400-600 M St NE ", "COUNT_": 3, "INSTALLYEAR": "FY-09", "X": 400135.07999807998, "Y": 137531.67999706001 }, "geometry": { "type": "Point", "coordinates": [ -76.998444931920659, 38.905650418335853 ] } },
{ "type": "Feature", "properties": { "OBJECTID": 260, "WARD": 6, "LOCATION": "Saratoga Ave NE. bet. Brentwood rd & 14th street", "COUNT_": 3, "INSTALLYEAR": "FY-09", "X": 401219.19001507998, "Y": 139383.93001477999 }, "geometry": { "type": "Point", "coordinates": [ -76.985942822472396, 38.92233527641671 ] } },
{ "type": "Feature", "properties": { "OBJECTID": 261, "WARD": 7, "LOCATION": "Jay St.  NE between 50th Pl & Division Ave", "COUNT_": 3, "INSTALLYEAR": "FY-09", "X": 406551.78998802998, "Y": 137090.85001264999 }, "geometry": { "type": "Point", "coordinates": [ -76.924470208953764, 38.901654861699463 ] } },
{ "type": "Feature", "properties": { "OBJECTID": 262, "WARD": 7, "LOCATION": "4600 Blk H Street SE ", "COUNT_": 3, "INSTALLYEAR": "FY-09", "X": 405806.77507534, "Y": 134537.81657028 }, "geometry": { "type": "Point", "coordinates": [ -76.933080658470331, 38.878661419735835 ] } },
{ "type": "Feature", "properties": { "OBJECTID": 263, "WARD": 7, "LOCATION": "Unit blk 53th St. SE", "COUNT_": 3, "INSTALLYEAR": "FY-09", "X": 406436.35, "Y": 135496.24 }, "geometry": { "type": "Point", "coordinates": [ -76.925815992768435, 38.887290883724155 ] } },
{ "type": "Feature", "properties": { "OBJECTID": 264, "WARD": 7, "LOCATION": "3600 Blk Texas Ave SE", "COUNT_": 3, "INSTALLYEAR": "FY-09", "X": 404148.0548178, "Y": 133701.63541751 }, "geometry": { "type": "Point", "coordinates": [ -76.952202033965364, 38.871138155523248 ] } },
{ "type": "Feature", "properties": { "OBJECTID": 265, "WARD": 7, "LOCATION": "Unit & 100 Blk 55th St NE ", "COUNT_": 3, "INSTALLYEAR": "FY-09", "X": 406686.30000415997, "Y": 135884.07999552999 }, "geometry": { "type": "Point", "coordinates": [ -76.922931260818075, 38.890782826493862 ] } },
{ "type": "Feature", "properties": { "OBJECTID": 266, "WARD": 7, "LOCATION": "Lyman Place NE bet. 17th and 19th streets", "COUNT_": 3, "INSTALLYEAR": "FY-09", "X": 402063.11001587001, "Y": 137457.05999698999 }, "geometry": { "type": "Point", "coordinates": [ -76.976216689718882, 38.904975805113821 ] } },
{ "type": "Feature", "properties": { "OBJECTID": 267, "WARD": 7, "LOCATION": "3000 - 3100 blk. of P  street  SE", "COUNT_": 3, "INSTALLYEAR": "FY-09", "X": 403057.37001679, "Y": 133798.63999359999 }, "geometry": { "type": "Point", "coordinates": [ -76.96477014389805, 38.872016479720841 ] } },
{ "type": "Feature", "properties": { "OBJECTID": 268, "WARD": 7, "LOCATION": "200 blk. Of 54th Street NE ", "COUNT_": 3, "INSTALLYEAR": "FY-09", "X": 406620.8224681, "Y": 136049.75209169 }, "geometry": { "type": "Point", "coordinates": [ -76.923684404760991, 38.892275757365624 ] } },
{ "type": "Feature", "properties": { "OBJECTID": 269, "WARD": 7, "LOCATION": "1100 blk. Of 45th Place  SE (one way street)", "COUNT_": 3, "INSTALLYEAR": "FY-09", "X": 405552.57, "Y": 134517.31 }, "geometry": { "type": "Point", "coordinates": [ -76.936010472624986, 38.878478330461299 ] } }
]
}
